City_ID,City,Country,Lat,Lng,Max Temp,Humidity,Cloudiness,Wind Speed,Current Description
0,Lompoc,US,34.6391,-120.4579,57.2,67,100,13.8,overcast clouds
1,Melfi,IT,40.9965,15.6514,59.0,77,20,6.91,few clouds
2,Avarua,CK,-21.2078,-159.775,78.8,94,20,3.44,light rain
3,Makakilo City,US,21.3469,-158.0858,71.6,68,75,5.75,broken clouds
4,Puerto Ayora,EC,-0.7393,-90.3518,80.6,78,40,11.5,scattered clouds
5,Jamestown,US,42.097,-79.2353,64.99,55,90,9.22,overcast clouds
6,Choix,MX,26.7092,-108.3219,89.6,18,100,3.85,overcast clouds
7,Ushuaia,AR,-54.8,-68.3,51.8,43,75,11.5,broken clouds
8,Aykhal,RU,66.0,111.5,-7.08,83,37,4.79,scattered clouds
9,Ambon,ID,-3.6954,128.1814,80.42,79,79,3.18,broken clouds
10,Albany,US,42.6001,-73.9662,73.4,56,90,8.05,overcast clouds
11,Chuy,UY,-33.6971,-53.4616,64.42,81,95,23.73,overcast clouds
12,Pudozh,RU,61.8099,36.5345,32.13,89,6,5.68,clear sky
13,Saskylakh,RU,71.9167,114.0833,18.03,94,98,7.65,overcast clouds
14,Lorengau,PG,-2.0226,147.2712,80.22,85,97,13.98,light rain
15,Vanimo,PG,-2.6741,141.3028,78.15,87,99,6.91,overcast clouds
16,Punta Arenas,CL,-53.15,-70.9167,53.6,54,75,13.8,broken clouds
17,Mataura,NZ,-46.1927,168.8643,46.99,97,89,1.99,overcast clouds
18,Vacaria,BR,-28.5122,-50.9339,87.01,10,6,5.99,clear sky
19,Klaksvik,FO,62.2266,-6.589,39.2,70,75,2.3,broken clouds
20,Nikolskoye,RU,59.7035,30.7861,44.6,42,0,2.24,light rain
21,Ribeira Grande,PT,38.5167,-28.7,64.4,88,75,4.61,broken clouds
22,Nanortalik,GL,60.1432,-45.2371,38.7,65,1,3.09,clear sky
23,Rikitea,PF,-23.1203,-134.9692,78.24,75,8,11.14,light rain
24,Vaini,TO,-21.2,-175.2,66.2,94,20,2.3,few clouds
25,Ponta Do Sol,PT,32.6667,-17.1,62.01,74,97,1.99,overcast clouds
26,Riyadh,SA,24.6877,46.7219,93.2,10,87,17.27,dust
27,Butaritari,KI,3.0707,172.7902,80.96,76,60,8.77,light rain
28,Hobart,AU,-42.8794,147.3294,46.99,81,90,10.36,overcast clouds
29,Bethel,US,41.3712,-73.414,62.6,77,90,9.22,light rain
30,Bredasdorp,ZA,-34.5322,20.0403,60.8,94,100,3.44,overcast clouds
31,Norman Wells,CA,65.282,-126.8329,-7.6,71,1,6.91,clear sky
32,Mahebourg,MU,-20.4081,57.7,78.8,89,40,5.75,light rain
33,Qaanaaq,GL,77.484,-69.3632,23.02,92,100,8.21,light snow
34,Barrow,US,71.2906,-156.7887,-18.4,76,1,6.91,clear sky
35,Kruisfontein,ZA,-34.0033,24.7314,64.0,79,100,1.01,overcast clouds
36,Bontang,ID,0.1333,117.5,77.65,87,51,4.23,broken clouds
37,Zhezkazgan,KZ,47.8043,67.7144,45.52,60,0,20.29,clear sky
38,Pacific Grove,US,36.6177,-121.9166,55.4,67,40,8.05,scattered clouds
39,Tambura,SS,5.6,27.4667,78.35,57,85,2.33,overcast clouds
40,Arraial Do Cabo,BR,-22.9661,-42.0278,87.8,37,0,9.22,clear sky
41,Dingle,PH,10.9995,122.6711,75.69,83,57,5.86,broken clouds
42,Kidal,ML,18.4411,1.4078,96.75,6,2,4.05,clear sky
43,Busselton,AU,-33.65,115.3333,61.0,97,100,7.25,light rain
44,Mar Del Plata,AR,-38.0023,-57.5575,66.2,63,40,16.11,light rain
45,Cape Town,ZA,-33.9258,18.4232,68.0,82,20,16.11,few clouds
46,Rawson,AR,-43.3002,-65.1023,71.08,37,10,13.96,clear sky
47,Pisco,PE,-13.7,-76.2167,77.0,57,0,12.66,clear sky
48,Pasni,PK,25.2631,63.471,79.48,70,0,14.47,clear sky
49,Port Alfred,ZA,-33.5906,26.891,67.28,90,98,2.64,overcast clouds
50,Verkh-Usugli,RU,52.7,115.1667,14.32,46,61,6.49,broken clouds
51,Acarau,BR,-2.8856,-40.12,83.88,71,72,15.12,broken clouds
52,Xichang,CN,27.8964,102.2634,54.63,77,19,3.76,few clouds
53,Strezhevoy,RU,60.7333,77.5889,41.0,60,90,8.95,light rain
54,Vestmannaeyjar,IS,63.4427,-20.2734,39.2,65,90,25.32,overcast clouds
55,Calmar,CA,53.2668,-113.8187,26.6,74,81,8.05,broken clouds
56,Mahajanga,MG,-15.7167,46.3167,78.8,94,20,2.3,few clouds
57,Hilo,US,19.7297,-155.09,70.0,56,1,4.61,clear sky
58,Severo-Kurilsk,RU,50.6789,156.125,27.75,72,47,8.59,scattered clouds
59,Nouadhibou,MR,20.931,-17.0347,78.8,44,5,16.11,clear sky
60,Provideniya,RU,64.3833,-173.3,9.09,85,100,23.15,light snow
61,Sur,OM,22.5667,59.5289,82.71,61,0,9.17,clear sky
62,Salalah,OM,17.0151,54.0924,82.4,74,20,4.61,few clouds
63,Saint-Joseph,RE,-21.3667,55.6167,78.8,73,0,2.3,clear sky
64,Ola,RU,59.5833,151.2833,9.25,73,100,15.55,overcast clouds
65,Lerik,AZ,38.7726,48.4128,51.8,100,40,2.3,scattered clouds
66,Bryan,US,30.6744,-96.37,82.0,27,1,6.44,clear sky
67,Komatipoort,ZA,-25.4332,31.9548,71.6,64,0,4.61,clear sky
68,Cherskiy,RU,68.75,161.3,-30.21,99,65,4.76,broken clouds
69,Hermanus,ZA,-34.4187,19.2345,66.99,85,100,1.99,overcast clouds
70,Shetpe,KZ,44.1667,52.1167,66.99,23,3,24.58,clear sky
71,Muros,ES,42.7762,-9.0603,57.0,45,5,19.75,clear sky
72,Sao Filipe,CV,14.8961,-24.4956,76.24,63,1,5.66,clear sky
73,Fortuna,US,40.5982,-124.1573,55.0,71,40,10.36,scattered clouds
74,Qaqortoq,GL,60.7167,-46.0333,55.4,18,20,11.5,few clouds
75,Sechura,PE,-5.5569,-80.8222,80.78,59,95,7.09,overcast clouds
76,Kavieng,PG,-2.5744,150.7967,78.28,84,100,4.65,moderate rain
77,Nishihara,JP,26.1842,127.7558,69.8,73,40,12.66,scattered clouds
78,Hay River,CA,60.8156,-115.7999,8.6,61,100,6.91,overcast clouds
79,Bongandanga,CD,1.5,21.05,71.8,85,100,3.83,overcast clouds
80,Atuona,PF,-9.8,-139.0333,80.49,77,34,18.5,scattered clouds
81,Esperanza,DO,19.5847,-70.9849,84.99,57,60,5.99,broken clouds
82,Praya,CV,14.9215,-23.5087,82.4,44,0,19.57,clear sky
83,Pangnirtung,CA,66.1451,-65.7125,26.6,74,75,3.44,broken clouds
84,Tongzi,CN,28.7829,105.0877,58.19,86,100,2.59,light rain
85,Shira,RU,54.4911,89.9531,32.45,72,96,0.34,overcast clouds
86,Castro,BR,-24.7911,-50.0119,79.92,39,2,7.2,clear sky
87,Onverwacht,SR,5.5833,-55.1833,89.6,58,40,5.75,scattered clouds
88,Teonthar,IN,24.9833,81.65,85.69,27,66,8.57,broken clouds
89,Soure,BR,-0.7167,-48.5233,82.83,74,92,10.74,light rain
90,Springbok,ZA,-29.6643,17.8865,76.55,29,10,4.0,clear sky
91,Cayenne,GF,4.9333,-52.3333,89.6,62,40,11.5,scattered clouds
92,Basco,PH,20.4487,121.9702,76.82,81,65,20.38,broken clouds
93,Kapaa,US,22.0752,-159.319,71.01,83,75,5.75,light rain
94,Touros,BR,-5.1989,-35.4608,86.0,70,40,13.8,scattered clouds
95,Maceio,BR,-9.6658,-35.7353,75.2,94,90,13.8,mist
96,Ulaangom,MN,49.9811,92.0667,34.9,34,10,1.66,clear sky
97,Mbanza-Ngungu,CD,-5.25,14.8667,71.08,91,86,3.11,overcast clouds
98,Carnarvon,AU,-24.8667,113.6333,77.0,100,90,13.8,overcast clouds
99,Isangel,VU,-19.55,169.2667,78.46,87,99,8.84,overcast clouds
100,Dongsheng,CN,39.8161,109.9776,44.46,82,93,10.04,moderate rain
101,Teya,RU,60.3778,92.6267,29.89,94,100,2.53,overcast clouds
102,Cabo San Lucas,MX,22.8909,-109.9124,78.8,64,75,4.61,broken clouds
103,Port Hardy,CA,50.6996,-127.4199,42.8,61,20,10.36,few clouds
104,Tuktoyaktuk,CA,69.4541,-133.0374,-18.4,69,1,3.44,clear sky
105,Fort William,GB,56.8165,-5.1121,37.99,82,89,5.1,overcast clouds
106,Bengkulu,ID,-3.8004,102.2655,75.92,89,85,3.85,light rain
107,Peleduy,RU,59.6289,112.7406,-8.7,100,28,2.37,scattered clouds
108,Bubaque,GW,11.2833,-15.8333,77.18,72,13,14.41,few clouds
109,Tasiilaq,GL,65.6145,-37.6368,32.0,64,0,3.44,clear sky
110,Khatanga,RU,71.9667,102.5,19.92,86,92,13.89,overcast clouds
111,Progreso,MX,21.2833,-89.6667,102.99,39,20,6.91,few clouds
112,Yellowknife,CA,62.456,-114.3525,1.0,71,75,6.91,light snow
113,Leningradskiy,RU,69.3833,178.4167,-20.34,96,48,6.33,scattered clouds
114,Bima,ID,-8.4667,118.7167,75.38,94,22,3.69,few clouds
115,Callaway,US,30.153,-85.5699,71.6,83,90,12.66,overcast clouds
116,Oktyabrskiy,RU,54.4815,53.471,47.5,84,100,4.05,light rain
117,Santa Luzia,BR,-19.7697,-43.8514,82.4,44,0,5.75,clear sky
118,Port Elizabeth,ZA,-33.918,25.5701,64.4,94,0,6.91,clear sky
119,Lamesa,US,32.7376,-101.951,82.0,6,0,17.0,clear sky
120,Bluff,NZ,-46.6,168.3333,46.99,97,53,1.99,broken clouds
121,Chokurdakh,RU,70.6333,147.9167,-19.32,99,52,8.12,broken clouds
122,Rudsar,IR,37.1376,50.288,55.4,94,90,2.3,mist
123,Hasaki,JP,35.7333,140.8333,44.6,87,20,3.44,few clouds
124,Hami,CN,42.8,93.45,54.32,28,63,5.97,broken clouds
125,Noumea,NC,-22.2763,166.4572,78.01,100,90,3.44,overcast clouds
126,Monrovia,LR,6.3005,-10.7969,84.2,74,40,6.91,light rain
127,Jinchang,CN,38.4953,102.1739,45.93,63,62,1.36,broken clouds
128,Faanui,PF,-16.4833,-151.75,81.46,76,100,11.83,overcast clouds
129,Puerto Cabezas,NI,14.0351,-83.3888,86.0,84,75,6.91,broken clouds
130,Longyearbyen,SJ,78.2186,15.6401,19.4,58,40,18.41,scattered clouds
131,Santa Barbara,US,34.7333,-120.0343,66.0,76,40,5.35,haze
132,Visby,SE,57.6409,18.296,42.01,75,0,19.57,clear sky
133,Portland,US,45.5234,-122.6762,48.99,65,1,4.61,clear sky
134,Nanning,CN,22.8167,108.3167,73.4,88,20,6.71,light rain
135,Rocha,UY,-34.4833,-54.3333,63.16,83,93,28.63,overcast clouds
136,Yeppoon,AU,-23.1333,150.7333,68.0,60,75,11.48,broken clouds
137,Margate,GB,51.3813,1.3862,44.01,64,60,1.99,broken clouds
138,Bambous Virieux,MU,-20.3428,57.7575,78.8,89,40,5.75,light rain
139,Mutoko,ZW,-17.397,32.2268,65.23,60,1,8.9,clear sky
140,Dali,CN,25.7,100.1833,54.41,73,0,5.46,clear sky
141,Georgetown,MY,5.4112,100.3354,78.8,89,20,2.3,few clouds
142,Merauke,ID,-8.4667,140.3333,77.2,83,9,3.27,clear sky
143,Palmer,US,42.1584,-72.3287,62.01,71,75,11.5,broken clouds
144,Nedjo,ET,9.5046,35.5019,71.19,28,53,3.62,broken clouds
145,Aklavik,CA,68.2191,-135.0107,-11.2,64,1,3.44,clear sky
146,Port Macquarie,AU,-31.4333,152.9167,46.99,78,0,9.71,clear sky
147,Verkhnevilyuysk,RU,63.4453,120.3167,-0.27,99,53,4.99,broken clouds
148,Kahului,US,20.8947,-156.47,69.8,83,20,0.27,few clouds
149,Clyde River,CA,70.4692,-68.5914,30.2,74,1,17.27,clear sky
150,Hervey Bay,AU,-25.2986,152.8535,64.0,51,0,4.0,clear sky
151,Le Moule,GP,16.3332,-61.3473,82.4,54,90,11.5,overcast clouds
152,Petropavlovsk-Kamchatskiy,RU,53.0452,158.6483,26.6,80,40,6.71,scattered clouds
153,Padang,ID,-0.9492,100.3543,77.0,94,75,5.75,moderate rain
154,Victoria,HK,22.2855,114.1577,73.0,85,37,9.13,scattered clouds
155,Ust-Ishim,RU,57.6935,71.1665,37.18,81,97,10.42,overcast clouds
156,Pevek,RU,69.7008,170.3133,-26.39,100,81,3.6,broken clouds
157,Naze,JP,28.3667,129.4833,64.96,70,25,19.13,scattered clouds
158,Saldanha,ZA,-33.0117,17.9442,68.0,64,99,9.22,overcast clouds
159,Alyangula,AU,-13.8483,136.4192,71.6,100,85,6.02,overcast clouds
160,Mitsamiouli,KM,-11.3847,43.2844,81.81,75,86,10.94,overcast clouds
161,Banda Aceh,ID,5.5577,95.3222,80.17,78,62,3.42,broken clouds
162,Lake Havasu City,US,34.4839,-114.3224,84.0,9,1,3.44,clear sky
163,Inndyr,NO,67.0338,14.0276,35.6,87,75,14.97,light rain and snow
164,Hamilton,US,39.1834,-84.5333,54.0,82,90,16.11,overcast clouds
165,Bonavista,CA,48.6499,-53.1147,36.0,100,100,8.05,light rain
166,Hays,US,30.0502,-98.0336,82.99,29,11,5.01,few clouds
167,San Patricio,US,28.017,-97.5169,86.0,48,1,6.91,clear sky
168,Kilindoni,TZ,-7.9139,39.6668,81.52,79,97,14.92,light rain
169,Bandarbeyla,SO,9.4942,50.8122,80.04,69,56,8.28,broken clouds
170,Iqaluit,CA,63.7506,-68.5145,26.6,93,75,23.02,broken clouds
171,Katsuura,JP,35.1333,140.3,55.4,76,20,4.61,few clouds
172,Bathsheba,BB,13.2167,-59.5167,78.8,69,20,14.97,volcanic ash
173,Meulaboh,ID,4.1363,96.1285,77.25,88,96,3.44,overcast clouds
174,Alghero,IT,40.5589,8.3181,60.8,88,0,9.22,clear sky
175,Umba,RU,66.6871,34.3429,34.68,87,99,20.07,overcast clouds
176,Sobolevo,RU,54.4299,31.8996,48.49,67,1,7.38,clear sky
177,Mahibadhoo,MV,3.7833,72.9667,83.1,71,48,5.03,scattered clouds
178,Constitucion,CL,-35.3333,-72.4167,68.58,48,0,17.36,clear sky
179,Vestmanna,FO,62.1564,-7.1664,39.2,70,75,2.3,broken clouds
180,Kodiak,US,57.79,-152.4072,39.2,93,90,19.57,moderate rain
181,Matara,LK,5.9485,80.5353,78.89,80,54,0.63,broken clouds
182,Sarankhola,BD,22.3082,89.7897,79.38,77,17,7.31,few clouds
183,Saint George,US,37.1041,-113.5841,73.99,11,1,5.12,clear sky
184,Klichka,RU,50.4457,117.996,26.46,27,100,10.87,overcast clouds
185,Sikasso,ML,10.9167,-7.0,102.22,14,70,4.45,broken clouds
186,Puerto Carreno,CO,6.189,-67.4859,91.15,51,78,1.83,broken clouds
187,Romans-Sur-Isere,FR,45.0464,5.0562,55.4,88,90,12.66,overcast clouds
188,East London,ZA,-33.0153,27.9116,69.8,94,75,5.75,broken clouds
189,Narsaq,GL,60.9167,-46.05,55.4,18,20,11.5,few clouds
190,Xiongyue,CN,40.1774,122.1228,50.72,54,100,13.8,light rain
191,Yulara,AU,-25.2406,130.9889,62.6,42,20,10.36,few clouds
192,Muravlenko,RU,63.7898,74.523,33.66,99,100,15.57,overcast clouds
193,Zhashkiv,UA,49.2454,30.1102,48.07,49,0,6.98,clear sky
194,Morro Bay,US,35.3658,-120.8499,62.01,71,1,14.97,clear sky
195,Nome,US,64.5011,-165.4064,21.2,86,90,23.02,snow
196,Tiksi,RU,71.6872,128.8694,-0.63,76,96,6.96,overcast clouds
197,Hithadhoo,MV,-0.6,73.0833,83.68,67,69,10.87,broken clouds
198,Osoyoos,CA,49.0331,-119.4524,42.8,42,49,1.14,scattered clouds
199,Ust-Ilimsk,RU,58.0006,102.6619,25.97,93,100,7.07,overcast clouds
200,Kaitangata,NZ,-46.2817,169.8464,52.88,97,79,4.12,broken clouds
201,Villacarrillo,ES,38.1156,-3.0848,57.45,62,74,7.63,broken clouds
202,Agadir,MA,30.4202,-9.5982,69.8,60,0,13.8,clear sky
203,Yinchuan,CN,38.4681,106.2731,46.99,59,94,8.57,overcast clouds
204,Auki,SB,-8.7676,160.7034,76.96,87,86,2.86,overcast clouds
205,Markova,UA,48.6758,24.4138,55.4,30,0,6.71,clear sky
206,Shiraz,IR,29.6036,52.5388,69.8,17,75,13.8,broken clouds
207,Broken Hill,AU,-31.95,141.4333,46.4,57,0,4.61,clear sky
208,Winnemucca,US,40.973,-117.7357,44.6,31,1,11.5,clear sky
209,Laguna De Perlas,NI,12.3429,-83.6712,84.2,84,40,4.61,scattered clouds
210,Solnechnyy,RU,50.7214,136.6319,30.47,76,100,3.38,overcast clouds
211,New Norfolk,AU,-42.7826,147.0587,46.99,76,84,1.99,broken clouds
212,Indiana,US,40.0003,-86.2503,50.0,93,90,19.57,moderate rain
213,Torbay,CA,47.6666,-52.7314,36.0,100,90,4.61,light rain
214,Bud,US,39.447,-86.1758,50.0,95,100,16.31,overcast clouds
215,Ambilobe,MG,-13.2,49.05,74.61,90,64,2.89,light rain
216,Newport,GB,51.5877,-2.9984,44.01,56,87,3.0,overcast clouds
217,Barga,IT,44.0742,10.4808,57.0,100,100,18.41,light rain
218,Victor Harbor,AU,-35.5667,138.6167,55.99,75,78,6.04,broken clouds
219,Dikson,RU,73.5069,80.5464,27.55,91,100,27.31,overcast clouds
220,Altos,BR,-5.0381,-42.46,86.0,66,75,5.75,broken clouds
221,Flinders,AU,-34.5833,150.8552,51.8,50,2,14.97,clear sky
222,Tongliao,CN,43.6125,122.2653,51.91,48,100,24.65,overcast clouds
223,Severnyy-Kospashskiy,RU,59.0925,57.8008,37.0,100,100,3.42,overcast clouds
224,Ous,RU,60.9058,61.5186,35.31,87,70,9.64,broken clouds
225,Saint-Philippe,RE,-21.3585,55.7679,78.8,73,0,2.3,light rain
226,Meadow Lake,US,34.8014,-106.5436,71.01,10,20,4.61,few clouds
227,Ngunguru,NZ,-35.6167,174.5,63.0,97,64,1.01,broken clouds
228,Kloulklubed,PW,7.0419,134.2556,78.8,89,90,5.1,moderate rain
229,Khandbari,NP,27.3747,87.2039,66.7,12,39,5.93,scattered clouds
230,Gomel,BY,52.4345,30.9754,55.4,38,0,8.95,clear sky
231,Port Blair,IN,11.6667,92.75,82.47,75,99,4.05,overcast clouds
232,Fort Nelson,CA,58.8053,-122.7002,19.4,45,20,14.97,few clouds
233,Enumclaw,US,47.2043,-121.9915,48.99,69,8,1.99,clear sky
234,Mpongwe,ZM,-13.5091,28.155,65.16,77,80,7.61,broken clouds
235,Geraldton,AU,-28.7667,114.6,75.2,94,90,23.02,overcast clouds
236,Caravelas,BR,-17.7125,-39.2481,82.65,60,54,7.07,broken clouds
237,Cidreira,BR,-30.1811,-50.2056,88.3,50,6,3.15,clear sky
238,Konya,TR,38.1667,32.5,37.4,75,75,11.5,broken clouds
239,Omsukchan,RU,62.5333,155.8,-24.3,99,95,4.52,overcast clouds
240,Bantva,IN,21.4864,70.0689,80.71,55,0,8.86,clear sky
241,Souillac,MU,-20.5167,57.5167,78.8,89,40,5.75,light rain
242,Terney,RU,45.0503,136.6092,43.32,71,42,5.99,scattered clouds
243,Torres,BR,-29.3353,-49.7269,86.95,52,23,7.52,few clouds
244,Japura,ID,-0.3167,102.35,72.97,97,53,1.36,light rain
245,Upernavik,GL,72.7868,-56.1549,32.27,76,100,13.8,snow
246,Havelock,US,34.8791,-76.9013,75.2,69,75,14.97,broken clouds
247,College,US,64.8569,-147.8028,12.0,40,75,5.75,broken clouds
248,Tommot,RU,58.9564,126.2925,12.58,92,100,11.03,light snow
249,Abha,SA,18.2164,42.5053,66.2,48,0,3.44,clear sky
250,Aksu,CN,41.1231,80.2644,59.18,25,0,6.91,clear sky
251,Ahipara,NZ,-35.1667,173.1667,62.51,91,8,2.33,clear sky
252,Puerto Lempira,HN,15.2667,-83.7667,86.0,79,40,13.8,scattered clouds
253,Xixiang,CN,35.1628,112.865,53.85,63,98,3.98,overcast clouds
254,Beaver Falls,US,40.752,-80.3192,66.99,55,90,9.22,overcast clouds
255,Urumqi,CN,43.801,87.6005,50.0,23,0,8.95,clear sky
256,Oistins,BB,13.0667,-59.5333,78.8,69,20,14.97,volcanic ash
257,Lhokseumawe,ID,5.1801,97.1507,77.67,86,11,4.09,few clouds
258,Ewa Beach,US,21.3156,-158.0072,71.6,68,75,5.75,broken clouds
259,Tamandare,BR,-8.7597,-35.1047,81.77,74,96,8.84,heavy intensity rain
260,Xushan,CN,30.1764,121.2457,64.99,94,75,6.71,light rain
261,Kalabo,ZM,-14.97,22.6814,68.47,47,1,5.44,clear sky
262,Simpang,ID,-1.2667,104.0833,73.69,96,75,0.58,broken clouds
263,Aswan,EG,24.0934,32.907,72.19,11,0,13.44,clear sky
264,Port Lincoln,AU,-34.7333,135.8667,59.95,57,100,10.96,overcast clouds
265,Honiara,SB,-9.4333,159.95,76.59,87,99,2.71,light rain
266,Tuatapere,NZ,-46.1333,167.6833,46.99,97,30,1.99,scattered clouds
267,Zafra,ES,38.4167,-6.4167,66.0,55,88,5.99,overcast clouds
268,Fond Du Lac,US,43.775,-88.4388,55.4,71,90,3.44,overcast clouds
269,Mosquera,CO,4.7059,-74.2302,68.0,49,75,11.5,broken clouds
270,Thompson,CA,55.7435,-97.8558,21.2,79,90,14.97,overcast clouds
271,Utinga,BR,-5.8172,-35.3954,87.8,70,40,13.8,scattered clouds
272,Dukat,RU,62.55,155.55,-24.81,99,98,3.98,overcast clouds
273,Lagoa,PT,39.05,-27.9833,62.85,84,87,7.78,overcast clouds
274,Marienburg,PL,54.0359,19.0266,53.01,100,100,10.4,overcast clouds
275,Santa Rosa Del Sur,CO,7.9644,-74.0544,78.49,74,100,3.11,overcast clouds
276,Ilulissat,GL,69.2167,-51.1,30.2,59,75,5.75,broken clouds
277,Hambantota,LK,6.1241,81.1185,80.46,75,86,2.19,overcast clouds
278,Hobyo,SO,5.3505,48.5268,83.01,62,89,10.76,overcast clouds
279,Ferme-Neuve,CA,46.7001,-75.4493,73.4,38,100,9.22,overcast clouds
280,Bilibino,RU,68.0546,166.4372,-25.02,94,24,4.54,few clouds
281,Chipinge,ZW,-20.1883,32.6236,62.35,73,1,5.66,clear sky
282,Stromness,GB,58.965,-3.296,39.2,60,41,8.05,scattered clouds
283,Coihaique,CL,-45.5752,-72.0662,59.0,88,90,11.5,light rain
284,West Wendover,US,40.7391,-114.0733,44.6,31,1,6.91,clear sky
285,Berlevag,NO,70.8578,29.0864,33.8,86,40,32.21,light snow
286,Bosaso,SO,11.2842,49.1816,80.6,71,5,3.13,clear sky
287,Kui Buri,TH,12.0828,99.8543,78.17,85,100,3.67,overcast clouds
288,Nortelandia,BR,-14.4547,-56.8028,90.7,47,7,4.27,clear sky
289,Conde,BR,-7.2597,-34.9075,80.6,100,75,8.05,broken clouds
290,Nagaur,IN,27.2,73.7333,84.97,6,0,4.54,clear sky
291,Malanje,AO,-9.5402,16.341,65.25,93,67,2.91,broken clouds
292,Barvinkove,UA,48.9097,37.0205,47.75,64,100,14.54,overcast clouds
293,Huangyan,CN,28.6478,121.2594,64.99,99,100,1.92,light rain
294,Olafsvik,IS,64.8945,-23.7142,36.25,98,100,19.28,overcast clouds
295,Nantucket,US,41.2835,-70.0995,50.0,87,90,10.36,overcast clouds
296,Avera,US,33.194,-82.5271,75.0,83,40,9.22,scattered clouds
297,Bonthe,SL,7.5264,-12.505,84.4,72,42,11.45,scattered clouds
298,Kisangani,CD,0.5167,25.2,75.2,94,40,1.95,scattered clouds
299,Sahuaripa,MX,29.05,-109.2333,86.97,16,100,4.07,overcast clouds
300,Honningsvag,NO,70.9821,25.9704,35.6,80,75,32.21,broken clouds
301,Kinsale,IE,51.7075,-8.5306,48.2,37,20,11.5,few clouds
302,Tevriz,RU,57.509,72.4042,34.92,86,94,9.06,overcast clouds
303,Ixtapa,MX,20.7,-105.2,80.6,65,1,9.22,clear sky
304,Mokhsogollokh,RU,61.4681,128.9203,12.43,92,100,7.76,overcast clouds
305,Putina,PE,-15.4667,-69.4333,45.82,75,71,3.83,broken clouds
306,Martapura,ID,-3.4167,114.85,77.0,100,99,2.3,overcast clouds
307,Maniitsoq,GL,65.4167,-52.9,34.77,80,25,3.36,scattered clouds
308,Ust-Tarka,RU,55.5672,75.705,29.89,97,100,8.21,overcast clouds
309,Lebu,CL,-37.6167,-73.65,60.53,70,0,15.26,clear sky
310,Ponta Delgada,PT,37.7333,-25.6667,66.2,88,40,9.22,scattered clouds
311,Gejiu,CN,23.306,103.1635,53.11,94,66,4.74,broken clouds
312,Lujan,AR,-34.5703,-59.105,70.0,58,87,5.99,overcast clouds
313,Pasighat,IN,28.0667,95.3333,70.9,65,57,6.98,light rain
314,Houston,US,29.7633,-95.3633,82.99,29,1,9.22,clear sky
315,Zagora,MA,30.3484,-5.8365,84.11,14,37,6.4,scattered clouds
316,Atar,MR,20.5169,-13.0499,96.03,11,27,12.35,scattered clouds
317,Barretos,BR,-20.5572,-48.5678,91.56,18,0,0.94,clear sky
318,Darnah,LY,32.767,22.6367,57.18,65,13,6.69,few clouds
319,Muroto,JP,33.2833,134.15,60.93,71,37,15.46,scattered clouds
320,Suleja,NG,9.1758,7.1808,77.0,65,75,17.27,broken clouds
321,Seoul,KR,37.5683,126.9778,57.2,62,0,2.3,clear sky
322,Leh,IN,34.1667,77.5833,31.93,68,100,2.39,light snow
323,Guerrero Negro,MX,27.9769,-114.0611,64.47,64,96,15.17,overcast clouds
324,Salisbury,GB,51.0693,-1.7957,46.4,49,20,6.91,few clouds
325,Lavrentiya,RU,65.5833,-171.0,4.35,62,100,32.93,overcast clouds
326,Waingapu,ID,-9.6567,120.2641,76.73,85,41,3.27,scattered clouds
327,Banjar,ID,-8.19,114.9675,82.4,83,20,2.3,few clouds
328,Sao Felix Do Xingu,BR,-6.6447,-51.995,89.42,51,91,4.5,overcast clouds
329,Alta,NO,69.9689,23.2717,34.0,75,40,19.57,scattered clouds
330,Karratha,AU,-20.7377,116.8463,82.83,75,89,6.93,overcast clouds
331,Neuquen,AR,-38.9516,-68.0591,73.4,35,0,11.5,clear sky
332,Marquette,US,46.5333,-87.6335,46.0,91,100,11.5,overcast clouds
333,Zambezi,ZM,-13.5432,23.1047,65.84,58,2,5.68,clear sky
334,Te Anau,NZ,-45.4167,167.7167,47.89,94,24,1.1,few clouds
335,Shirochanka,RU,46.6497,38.3978,48.61,86,100,11.05,light rain
336,Caruray,PH,10.3094,119.0128,78.8,89,40,4.61,scattered clouds
337,Turukhansk,RU,65.8167,87.9833,25.12,90,100,8.43,overcast clouds
338,Haines Junction,CA,60.7522,-137.5108,-4.0,41,93,1.14,overcast clouds
339,Pentecoste,BR,-3.7928,-39.2703,86.95,61,84,5.48,broken clouds
340,Sovetskiy,RU,61.3614,63.5842,35.51,92,73,8.41,broken clouds
341,Ecully,FR,45.7773,4.7748,50.0,87,90,12.66,light rain
342,Bochnia,PL,49.9691,20.4303,55.0,61,99,11.16,light rain
343,Tezu,IN,27.9167,96.1667,74.25,48,86,5.41,overcast clouds
344,Alta Floresta,BR,-9.8756,-56.0861,89.6,58,75,6.91,broken clouds
345,Phalodi,IN,27.1333,72.3667,85.44,7,0,7.29,clear sky
346,Airai,TL,-8.9266,125.4092,57.85,88,73,1.54,broken clouds
347,Yaan,NG,7.3833,8.5667,88.63,47,94,10.74,light rain
348,Prieska,ZA,-29.6641,22.7474,81.01,24,10,4.65,clear sky
349,Hinton,CA,53.4001,-117.5857,34.0,51,82,3.44,broken clouds
350,Zabol,AF,32.25,67.25,61.75,26,81,3.56,broken clouds
351,Vilya,RU,55.2456,42.2089,40.03,85,100,4.74,overcast clouds
352,Flin Flon,CA,54.7682,-101.865,28.4,86,90,10.36,light snow
353,Cherdyn,RU,60.403,56.4787,35.6,94,47,6.26,scattered clouds
354,Esperance,AU,-33.8667,121.9,60.8,72,90,23.02,light rain
355,Fayetteville,US,35.0527,-78.8784,78.8,47,40,16.11,scattered clouds
356,Gerede,TR,40.8008,32.1969,27.5,98,100,4.54,light snow
357,Nanakuli,US,21.3906,-158.1547,71.6,68,75,5.75,broken clouds
358,Udachnyy,RU,66.4167,112.4,-12.98,88,31,3.49,scattered clouds
359,Lufilufi,WS,-13.8745,-171.5986,75.2,94,20,3.44,few clouds
360,Okato,NZ,-39.2,173.8833,53.01,95,35,8.99,scattered clouds
361,Jacksonville,US,30.3322,-81.6556,63.0,94,90,11.5,mist
362,Bilma,NE,18.6853,12.9164,91.62,6,31,10.38,scattered clouds
363,Mattru,SL,7.6244,-11.8332,85.01,68,79,7.09,moderate rain
364,Svetlyy,RU,54.675,20.1347,60.8,44,0,8.95,clear sky
365,Biltine,TD,14.5333,20.9167,88.48,8,4,13.09,clear sky
366,Fairbanks,US,64.8378,-147.7164,14.0,47,1,9.22,clear sky
367,Orebro,SE,59.2741,15.2066,33.8,93,90,12.66,light snow
368,Hailar,CN,49.2,119.7,28.42,94,100,20.0,snow
369,Iskateley,RU,67.6803,53.1512,30.65,82,83,19.69,broken clouds
370,Makaryev,RU,57.8797,43.8069,39.45,93,62,2.68,broken clouds
371,Si Sa Ket,TH,14.8333,104.3333,84.0,99,91,6.6,overcast clouds
372,Maridi,SS,4.9158,29.4742,71.42,79,98,6.17,light rain
373,Puerto Escondido,MX,15.85,-97.0667,84.2,79,1,12.66,clear sky
374,Jizan,SA,17.3333,42.6667,86.0,70,0,3.51,clear sky
375,Acapulco,MX,16.8634,-99.8901,84.2,65,1,12.66,clear sky
376,Sibolga,ID,1.7427,98.7792,76.21,91,100,4.16,overcast clouds
377,Anderson,US,34.5334,-82.6499,73.4,40,1,11.5,clear sky
378,Sao Jose Da Coroa Grande,BR,-8.8978,-35.1478,81.5,75,98,9.26,very heavy rain
379,Namatanai,PG,-3.6667,152.4333,76.3,91,100,4.76,light rain
380,Morant Bay,JM,17.8815,-76.4093,84.0,74,40,21.85,scattered clouds
381,Mandalgovi,MN,45.7625,106.2708,19.38,49,42,18.48,scattered clouds
382,Ilebo,CD,-4.3167,20.5833,70.5,97,98,6.4,light rain
383,Aksarka,RU,66.5606,67.7975,31.57,98,100,14.5,overcast clouds
384,Gat,IL,31.61,34.7642,59.0,45,9,6.69,clear sky
385,Warri,NG,5.5167,5.75,79.97,81,100,4.18,light rain
386,Henties Bay,NA,-22.116,14.2845,73.0,68,2,1.99,clear sky
387,Adrar,MR,20.5022,-10.0711,93.34,11,45,8.01,scattered clouds
388,Surovikino,RU,48.6078,42.8486,55.18,76,60,8.97,broken clouds
389,Boguchany,RU,58.3814,97.4531,31.78,97,100,6.15,light snow
390,San Quintin,MX,30.4833,-115.95,63.18,67,100,7.27,overcast clouds
391,Viedma,AR,-40.8135,-62.9967,73.87,28,9,12.73,clear sky
392,Miri,MY,4.4148,114.0089,78.8,89,40,3.44,scattered clouds
393,Gondanglegi,ID,-7.7479,112.0132,74.93,89,86,4.52,overcast clouds
394,Samarai,PG,-10.6167,150.6667,79.39,68,67,10.04,broken clouds
395,Bhawanipatna,IN,19.9,83.1667,82.47,46,79,4.14,broken clouds
396,Yingkou,CN,40.6648,122.2283,51.62,51,100,14.92,overcast clouds
397,Belyy Yar,RU,53.6039,91.3903,28.4,64,85,3.78,overcast clouds
398,Killin,US,33.6123,-91.7412,73.4,25,1,5.75,clear sky
399,Vila Franca Do Campo,PT,37.7167,-25.4333,66.2,88,40,9.22,scattered clouds
400,Hovd,MN,48.0056,91.6419,30.67,29,5,5.44,clear sky
401,La Palma,US,33.8464,-118.0467,68.0,72,75,9.22,broken clouds
402,Ostrovnoy,RU,68.0531,39.5131,34.09,83,62,28.3,broken clouds
403,Maputo,MZ,-25.9653,32.5892,78.8,83,0,11.5,clear sky
404,Rubiataba,BR,-15.1644,-49.8033,81.48,58,2,3.76,clear sky
405,Ambovombe,MG,-25.1667,46.0833,75.0,85,3,15.77,clear sky
406,San Bartolome De Tirajana,ES,27.9248,-15.5733,71.6,68,20,12.66,few clouds
407,Bereda,ES,43.2686,-7.5406,48.0,64,58,17.0,broken clouds
408,Roma,US,43.2128,-75.4557,71.6,49,1,13.8,clear sky
409,Carutapera,BR,-1.195,-46.02,81.73,83,100,7.74,overcast clouds
410,Powell River,CA,49.8496,-124.5361,45.0,70,20,6.91,few clouds
411,Ordynskoye,RU,54.3656,81.8994,31.93,94,100,1.81,overcast clouds
412,Contamana,PE,-7.3333,-75.0167,86.63,66,100,4.18,light rain
413,Sisimiut,GL,66.9395,-53.6735,33.4,76,56,12.19,broken clouds
414,Oshakati,NA,-17.7833,15.6833,78.17,27,32,7.58,scattered clouds
415,Vila Velha,BR,-20.3297,-40.2925,84.2,58,0,10.36,clear sky
416,Mbuji-Mayi,CD,-6.15,23.6,72.59,84,82,2.68,broken clouds
417,Manokwari,ID,-0.8667,134.0833,78.01,81,100,6.55,overcast clouds
418,Anadyr,RU,64.75,177.4833,-5.01,77,100,15.66,snow
419,Tagusao,PH,9.1924,117.8141,79.07,81,35,3.11,scattered clouds
420,Altay,CN,47.8667,88.1167,36.27,29,0,11.3,clear sky
421,Mackay,AU,-21.15,149.2,73.4,83,75,17.27,broken clouds
422,Superior,US,46.7208,-92.1041,46.4,93,90,3.44,moderate rain
423,San Antonio,US,29.4241,-98.4936,82.99,32,1,6.91,clear sky
424,Bauru,BR,-22.3147,-49.0606,87.8,35,0,11.5,clear sky
425,Saint-Pierre,RE,-21.3393,55.4781,78.8,73,0,2.3,clear sky
426,Whyalla,AU,-33.0333,137.5833,57.2,62,59,8.05,broken clouds
427,Pelotas,BR,-31.7719,-52.3425,80.6,69,40,20.71,scattered clouds
428,Vao,NC,-22.6667,167.4833,75.7,79,56,10.04,broken clouds
429,Awjilah,LY,29.1081,21.2869,68.0,17,2,10.54,clear sky
430,Alofi,NU,-19.0595,-169.9187,68.0,100,13,1.14,few clouds
431,Guarapari,BR,-20.6667,-40.4975,84.2,58,0,10.36,clear sky
432,Cabedelo,BR,-6.9811,-34.8339,80.6,100,75,8.05,broken clouds
433,Arlit,NE,18.7369,7.3853,91.26,5,0,3.06,clear sky
434,Andra,RU,62.5147,65.8878,31.69,93,81,8.21,broken clouds
435,Tucumcari,US,35.1717,-103.725,77.0,8,1,6.91,clear sky
436,Yashkul,RU,46.1711,45.3435,61.97,41,87,12.66,overcast clouds
437,Beloha,MG,-25.1667,45.05,73.0,88,2,11.77,clear sky
438,Sosnogorsk,RU,63.6023,53.8817,35.94,76,7,13.0,clear sky
439,Lima,PE,-12.0432,-77.0282,77.0,61,0,9.22,clear sky
440,Pontian Kecil,MY,1.4801,103.3899,80.01,94,20,2.3,few clouds
441,Ca Mau,VN,9.1769,105.15,81.5,75,27,7.07,scattered clouds
442,Murmansk,RU,68.0,34.0,30.88,81,100,14.61,overcast clouds
443,Prince George,CA,53.9166,-122.753,36.0,55,75,5.75,broken clouds
444,Nagarote,NI,12.2659,-86.5647,91.4,52,20,9.22,few clouds
445,Ishigaki,JP,24.3448,124.1572,73.17,78,87,20.8,overcast clouds
446,Juneau,US,58.3019,-134.4197,30.0,80,40,2.44,light snow
447,Algete,ES,40.5971,-3.4974,55.4,76,75,13.8,broken clouds
448,Ponorogo,ID,-7.8685,111.462,75.43,91,100,1.83,overcast clouds
449,Zeerust,ZA,-25.5369,26.0751,75.2,41,0,3.44,clear sky
450,Luderitz,NA,-26.6481,15.1594,75.33,48,0,5.91,clear sky
451,Teseney,ER,15.11,36.6575,84.02,28,12,17.58,few clouds
452,Sept-Iles,CA,50.2001,-66.3821,57.2,51,90,5.75,overcast clouds
453,Beringovskiy,RU,63.05,179.3167,2.79,94,100,25.66,snow
454,Madimba,TZ,-10.4,40.3333,77.72,89,90,10.51,light rain
455,Traverse City,US,44.7631,-85.6206,53.6,94,90,4.61,overcast clouds
456,Little Rock,US,34.7465,-92.2896,75.99,28,1,6.91,clear sky
457,Sitka,US,57.0531,-135.33,35.6,80,90,2.46,overcast clouds
458,Kroya,ID,-7.6331,109.2461,79.05,84,93,1.95,moderate rain
459,Workington,GB,54.6425,-3.5441,37.99,74,76,10.49,broken clouds
460,Fare,PF,-16.7,-151.0167,81.91,74,100,11.32,overcast clouds
461,Myskhako,RU,44.6714,37.7433,46.4,87,100,11.18,light rain
462,Rawah,IQ,34.4816,41.9093,62.33,26,1,7.38,clear sky
463,Rairangpur,IN,22.2676,86.1751,83.68,36,89,5.5,overcast clouds
464,La Macarena,CO,2.1837,-73.7849,78.89,78,98,2.42,overcast clouds
465,Pancas,BR,-19.225,-40.8514,87.67,39,0,1.1,clear sky
466,Saint Anthony,US,45.0205,-93.218,50.0,71,90,10.36,overcast clouds
467,Melchor De Mencos,GT,17.0686,-89.1522,93.2,55,0,4.61,clear sky
468,Gamba,GA,-2.65,10.0,80.82,78,78,10.56,broken clouds
469,Mantua,IT,45.1667,10.7833,51.01,89,100,3.0,overcast clouds
470,Belebey,RU,54.1167,54.1167,43.29,88,100,7.56,light rain
471,George,ZA,-33.963,22.4617,62.6,88,0,5.75,clear sky
472,Biskamzha,RU,53.4497,89.5272,27.77,89,85,0.85,overcast clouds
473,Shimoda,JP,34.6667,138.95,51.01,64,50,5.99,scattered clouds
474,Shache,CN,38.4167,77.2406,58.8,23,11,6.33,few clouds
475,Floro,NO,61.5996,5.0328,41.0,52,9,8.05,clear sky
476,Jagtial,IN,18.8,78.9333,87.12,38,82,5.48,broken clouds
477,Maun,BW,-19.9833,23.4167,71.73,33,0,7.18,clear sky
478,Buraydah,SA,26.326,43.975,75.2,29,0,14.97,clear sky
479,Bombay,IN,19.0144,72.8479,84.2,84,10,4.9,mist
480,Dayong,CN,25.0209,118.2898,66.2,88,0,2.24,clear sky
481,Tchollire,CM,8.4022,14.1698,95.7,15,90,2.24,overcast clouds
482,Lasa,IT,46.6166,10.7002,53.6,93,75,6.91,broken clouds
483,Arman,RU,59.7,150.1667,8.04,90,100,12.88,light snow
484,Antofagasta,CL,-23.65,-70.4,71.01,63,20,11.5,few clouds
485,Christchurch,NZ,-43.5333,172.6333,55.0,93,0,6.91,clear sky
486,Vostok,RU,46.4856,135.8833,40.44,75,98,6.8,overcast clouds
487,Lalmohan,BD,22.3384,90.7419,80.89,75,25,13.91,scattered clouds
488,Shahpura,IN,27.3833,75.9667,84.2,24,0,3.44,haze
489,Talnakh,RU,69.4865,88.3972,27.21,93,96,11.12,overcast clouds
490,Caldwell,US,43.6629,-116.6874,45.0,26,1,14.97,clear sky
491,Ugoofaaru,MV,5.6667,73.0,83.5,67,20,1.32,few clouds
492,Tura,IN,25.5198,90.2201,78.12,41,34,6.42,scattered clouds
493,Semey,KZ,50.4111,80.2275,36.12,70,0,8.81,clear sky
494,Luanda,AO,-8.8368,13.2343,82.4,74,40,5.75,scattered clouds
495,Qui Nhon,VN,13.7667,109.2333,75.11,88,24,6.15,few clouds
496,Hannibal,US,39.7084,-91.3585,59.0,47,1,17.27,clear sky
497,Albion,US,42.2431,-84.753,55.4,67,75,9.22,broken clouds
498,Kaeo,NZ,-35.1,173.7833,63.0,97,60,3.0,broken clouds
499,Andrews,US,32.3187,-102.5457,84.2,5,1,18.41,clear sky
500,Abu Dhabi,AE,24.4667,54.3667,89.6,31,0,6.91,clear sky
501,Shingu,JP,33.7333,135.9833,53.31,82,55,6.22,broken clouds
502,Sangar,RU,63.9242,127.4739,-10.98,90,65,3.4,broken clouds
503,Novosil,RU,52.9739,37.0405,46.18,60,43,7.7,scattered clouds
504,Hirtshals,DK,57.5881,9.9592,36.0,100,90,9.22,overcast clouds
505,Umm Kaddadah,SD,13.6017,26.6876,80.1,11,67,12.41,broken clouds
506,Mayumba,GA,-3.432,10.6554,81.73,83,66,8.21,broken clouds
507,Broome,US,42.2506,-75.833,61.0,94,90,11.5,overcast clouds
508,Sao Joao Da Barra,BR,-21.6403,-41.0511,87.8,45,20,4.61,few clouds
509,Tchibanga,GA,-2.85,11.0333,74.37,86,100,2.28,overcast clouds
510,Wanning,CN,18.8003,110.3967,75.02,84,28,4.43,scattered clouds
511,Sorland,NO,67.667,12.6934,35.6,80,75,21.85,broken clouds
512,Miranda,CO,3.2499,-76.2281,84.2,58,40,5.75,scattered clouds
513,Miyazu,JP,35.5333,135.1833,44.76,84,29,6.6,scattered clouds
514,Bekwai,GH,6.4534,-1.5774,87.15,52,40,3.53,scattered clouds
515,Suamico,US,44.6319,-88.0393,52.0,87,90,6.91,overcast clouds
516,Boyabat,TR,41.4689,34.7667,42.03,94,100,3.91,overcast clouds
517,Sernur,RU,56.9333,49.1536,31.14,98,100,2.64,overcast clouds
518,Grindavik,IS,63.8424,-22.4338,39.2,87,75,21.85,broken clouds
519,Salt,JO,32.0392,35.7272,50.0,62,75,13.8,broken clouds
520,Ust-Kut,RU,56.7938,105.7672,16.14,94,98,3.36,overcast clouds
521,Opuwo,NA,-18.0607,13.84,73.76,32,6,8.57,clear sky
522,San Policarpo,PH,12.1791,125.5072,78.48,80,39,7.65,scattered clouds
523,Sola,VU,-13.8833,167.55,80.06,75,99,1.86,overcast clouds
524,Paamiut,GL,61.994,-49.6678,35.8,79,7,10.16,clear sky
525,Kariba,ZW,-16.5167,28.8,70.84,64,1,5.32,clear sky
526,Eten,PE,-6.9081,-79.8642,77.0,61,0,14.97,clear sky
527,Mehamn,NO,71.0357,27.8492,33.8,80,40,29.93,light snow
528,Kuusamo,FI,65.9667,29.1833,35.6,64,20,13.8,few clouds
529,Dunedin,NZ,-45.8742,170.5036,55.99,83,22,1.68,few clouds
530,Tortoli,IT,39.9256,9.6572,60.8,88,75,18.41,broken clouds
531,Dogondoutchi,NE,13.6393,4.0287,93.96,5,52,5.28,broken clouds
532,Isugod,PH,9.3408,118.1196,77.83,84,49,1.92,scattered clouds
533,Kununurra,AU,-15.7667,128.7333,73.4,94,40,3.67,scattered clouds
534,Kashi,CN,39.4547,75.9797,59.0,26,3,6.71,clear sky
535,Chimore,BO,-16.9833,-65.1333,83.34,71,91,2.24,overcast clouds
536,Camingawan,PH,9.9036,122.8417,77.5,84,94,3.4,overcast clouds
537,Frunze,UA,48.6686,38.7544,51.85,78,100,13.87,overcast clouds
538,Chauk,MM,20.8833,94.8167,87.1,52,25,10.54,scattered clouds
539,Pilar,BR,-9.5972,-35.9567,75.2,94,90,13.8,mist
540,Palembang,ID,-2.9167,104.7458,75.99,86,68,1.86,heavy intensity rain
541,Nagato,JP,34.3833,131.2,57.2,88,20,12.66,few clouds
542,Santa Maria,BR,-29.6842,-53.8069,75.2,78,75,8.05,broken clouds
543,Cairns,AU,-16.9167,145.7667,73.4,94,6,3.33,clear sky
544,Boffa,GN,10.1667,-14.0333,82.42,64,65,11.97,broken clouds
545,Jaisalmer,IN,26.9147,70.9181,88.41,8,0,1.1,clear sky
546,Nyurba,RU,63.2842,118.3319,-6.05,99,43,3.2,scattered clouds
547,Nelson Bay,AU,-32.7167,152.15,51.01,62,1,10.36,clear sky
548,Hirara,JP,24.8,125.2833,71.2,77,90,19.19,overcast clouds
549,Brae,GB,60.3964,-1.353,41.0,60,20,14.97,few clouds
550,Reforma,MX,18.1,-91.0167,104.11,22,10,6.73,clear sky
551,Adre,TD,13.4667,22.2,83.8,10,0,11.36,clear sky
552,Tahta,EG,26.7693,31.5021,69.8,23,0,19.57,clear sky
553,Chapais,CA,49.7834,-74.8492,57.2,30,1,9.22,clear sky
554,Mananjary,MG,-21.2167,48.3333,76.23,83,100,3.33,overcast clouds
555,Thurso,GB,58.5927,-3.5259,37.4,81,44,3.44,scattered clouds
556,Struer,DK,56.4912,8.5838,37.0,92,100,12.1,overcast clouds
557,Mareeba,AU,-17.0,145.4333,73.4,94,2,1.16,clear sky
558,Cacoal,BR,-11.4386,-61.4472,84.4,71,98,1.48,overcast clouds
559,Katangli,RU,51.7102,143.2326,30.7,94,91,4.54,overcast clouds
560,Umm Bab,QA,25.2142,50.8072,80.6,50,1,8.05,clear sky
561,Novikovo,RU,51.1537,37.8879,47.64,51,95,11.41,overcast clouds
562,La Ronge,CA,55.1001,-105.2842,30.2,64,100,10.36,overcast clouds
563,Wangaratta,AU,-36.3667,146.3333,41.0,93,35,8.05,scattered clouds
564,Zapolyarnyy,RU,69.4154,30.8136,33.8,75,40,26.46,scattered clouds
565,Goma,CD,-1.6792,29.2228,73.4,64,75,4.61,broken clouds
566,Mayo,US,38.8876,-76.5119,77.0,41,75,4.12,broken clouds
567,Takoradi,GH,4.8845,-1.7554,83.26,76,84,13.49,broken clouds
568,Exmouth,GB,50.6172,-3.4023,45.0,54,75,13.62,broken clouds
569,Juybar,IR,36.6412,52.9124,55.4,88,90,2.3,overcast clouds
570,Azul,AR,-36.777,-59.8585,69.01,61,17,7.0,few clouds
571,Ornskoldsvik,SE,63.2909,18.7153,37.4,60,0,5.75,clear sky
572,Yumen,CN,40.2833,97.2,47.77,26,54,14.29,broken clouds
573,Ajaccio,FR,42.0,8.9167,60.8,82,90,3.44,overcast clouds
574,Eirunepe,BR,-6.6603,-69.8736,92.03,47,36,2.73,scattered clouds
575,Jiazi,CN,22.8779,116.067,68.25,88,29,6.8,scattered clouds
576,Baruun-Urt,MN,46.6806,113.2792,25.05,87,100,15.37,light snow
577,Corinto,GR,37.9407,22.9573,55.0,57,1,4.43,clear sky
578,Grand Gaube,MU,-20.0064,57.6608,78.01,80,86,4.0,light rain
579,Chinandega,NI,12.6294,-87.1311,93.2,49,40,4.61,scattered clouds
580,Taraz,KZ,42.9,71.3667,41.0,81,1,2.24,clear sky
581,Iquitos,PE,-3.7481,-73.2472,87.8,66,75,3.44,broken clouds
582,Penukonda,IN,14.0833,77.5833,80.46,54,6,13.22,clear sky
583,Pyu,MM,18.4833,96.4333,78.76,73,53,6.04,broken clouds
584,Gazanjyk,TM,39.2446,55.5154,74.98,14,64,26.66,broken clouds
585,Yemelyanovo,RU,56.1681,92.6767,41.0,33,0,8.95,clear sky
586,Garowe,SO,8.4054,48.4845,76.46,60,17,18.01,few clouds
587,Komsomolskiy,UZ,40.4272,71.7189,57.2,38,42,9.22,scattered clouds
588,Abu Samrah,SY,35.3029,37.1841,47.48,66,42,9.44,scattered clouds
589,Mtambile,TZ,-5.3833,39.7,80.19,79,63,9.62,broken clouds
590,Samfya,ZM,-11.3649,29.5565,65.16,90,65,7.58,light rain
591,Lamar,US,33.6668,-95.5836,75.99,33,1,9.22,clear sky
592,Shestakovo,RU,56.4915,103.96,20.91,91,92,3.71,overcast clouds
593,Nizhnekamsk,RU,55.6366,51.8245,44.6,100,90,4.47,light rain
594,Simao,CN,22.7886,100.9748,62.67,83,35,2.8,scattered clouds
595,Kushmurun,KZ,52.4503,64.6311,28.85,93,81,3.71,broken clouds
596,North Bend,US,43.4065,-124.2243,53.01,61,1,13.8,clear sky
597,Sringeri,IN,13.4167,75.25,73.4,94,75,4.61,light rain
598,Coquimbo,CL,-29.9533,-71.3436,62.6,72,0,16.11,clear sky
599,Najran,SA,17.4924,44.1277,89.6,14,40,11.5,scattered clouds
600,Olhao,PT,37.0286,-7.8411,66.2,77,20,14.97,few clouds
601,Koslan,RU,63.4564,48.8989,37.04,71,29,14.25,scattered clouds
602,Ketchikan,US,55.3422,-131.6461,37.4,75,90,2.48,overcast clouds
603,Marion,US,39.7684,-86.1555,50.0,93,90,18.41,light rain
604,Sainte-Maxime,FR,43.3,6.6333,55.0,87,90,6.91,overcast clouds
605,Pop,UZ,40.8736,71.1089,60.8,44,40,6.91,scattered clouds
606,Codrington,AU,-38.2667,141.9667,54.9,75,100,11.12,overcast clouds
607,Campbeltown,GB,55.4258,-5.6076,44.01,56,20,11.5,few clouds
608,Kavaratti,IN,10.5669,72.642,83.77,66,9,4.36,clear sky
609,Boyuibe,BO,-20.4167,-63.2833,73.4,83,90,12.97,overcast clouds
610,Tabuk,PH,17.4189,121.4443,70.47,85,68,3.56,broken clouds
611,Coronel Bogado,PY,-27.1833,-56.3,71.6,100,90,9.22,overcast clouds
612,Tarbes,FR,43.25,0.1667,46.4,81,75,8.05,broken clouds
613,Pullman,US,46.7313,-117.1796,45.0,45,1,8.05,clear sky
614,Mumford,GH,5.2618,-0.759,82.27,83,56,14.65,broken clouds
615,Sioux Lookout,CA,50.1001,-91.917,37.4,93,90,5.75,mist
616,Prado,BR,-17.3411,-39.2208,81.7,63,41,7.7,scattered clouds
617,Penha,BR,-26.7694,-48.6458,82.4,74,0,10.36,clear sky
618,Aberdeen,GB,57.1437,-2.0981,41.0,60,40,13.8,scattered clouds
619,Aasiaat,GL,68.7098,-52.8699,28.2,78,100,11.43,overcast clouds
620,Botwood,CA,49.1499,-55.3482,45.0,94,100,7.0,overcast clouds
621,Wanaka,NZ,-44.7,169.15,48.99,98,29,1.01,scattered clouds
622,Gdov,RU,58.7406,27.8122,40.93,83,97,6.89,overcast clouds
623,Manbij,SY,36.5281,37.9549,46.4,71,75,8.75,broken clouds
624,Pokhara,NP,28.2333,83.9833,69.08,9,46,8.7,scattered clouds
625,Mason City,US,43.1536,-93.201,54.0,58,90,20.71,overcast clouds
626,Seymchan,RU,62.8833,152.4333,-25.2,99,55,2.86,broken clouds
627,Isla Vista,US,34.4133,-119.861,62.6,67,1,5.75,clear sky
628,Mogapi,BW,-22.323,27.8349,75.2,53,0,6.29,clear sky
629,Udayagiri,IN,20.1333,84.3833,76.64,51,94,0.67,overcast clouds
630,Nhulunbuy,AU,-12.2333,136.7667,77.0,88,98,5.08,overcast clouds
631,Zell Am See,AT,47.3256,12.7944,60.8,36,20,11.5,few clouds
632,Urengoy,RU,65.9667,78.3667,32.18,98,100,17.83,snow
633,Ayan,RU,56.45,138.1667,11.26,74,94,10.8,overcast clouds
634,Gigmoto,PH,13.7796,124.39,78.22,85,66,6.44,broken clouds
635,Lakhimpur,IN,27.95,80.7667,80.33,8,0,5.61,clear sky
636,Ancud,CL,-41.8697,-73.8203,60.8,100,90,16.11,light intensity drizzle
637,Kingaroy,AU,-26.5333,151.8333,46.4,66,0,8.05,clear sky
638,Nabire,ID,-3.3667,135.4833,75.25,91,43,4.12,scattered clouds
639,Bad Kissingen,DE,50.2,10.0833,46.0,94,96,5.01,light rain
640,Vevcani,MK,41.2406,20.5933,46.53,75,15,4.34,few clouds
641,Boyolangu,ID,-8.1181,111.8935,75.02,91,65,1.23,broken clouds
642,Deep River,CA,46.1001,-77.4995,62.6,51,1,4.61,clear sky
643,Zabid,YE,14.1951,43.3152,82.72,61,0,5.64,clear sky
644,Mossendjo,CG,-2.9506,12.7261,71.82,81,100,1.03,overcast clouds
645,Male,MV,4.1748,73.5089,84.2,84,20,3.44,few clouds
646,Porbandar,IN,21.6422,69.6093,80.44,67,0,11.21,clear sky
647,Taoudenni,ML,22.6783,-3.9836,96.98,10,12,7.67,few clouds
648,Raudeberg,NO,61.9875,5.1352,39.0,79,10,17.05,clear sky
649,Neiafu,TO,-18.65,-173.9833,66.2,100,20,6.6,few clouds
650,Hun,LY,29.1268,15.9477,76.62,12,86,19.26,overcast clouds
651,Bentiu,SS,9.2333,29.8333,92.88,10,91,4.47,overcast clouds
652,Olinda,BR,-8.0089,-34.8553,78.8,73,75,12.66,moderate rain
653,Spearfish,US,44.4908,-103.8594,41.0,48,90,20.71,overcast clouds
654,Okhotsk,RU,59.3833,143.3,18.52,79,100,20.0,light snow
655,Yar-Sale,RU,66.8333,70.8333,32.76,97,100,14.58,overcast clouds
656,Shentala,RU,54.45,51.4833,49.37,89,100,4.97,overcast clouds
657,Zhanakorgan,KZ,43.9098,67.2495,51.44,61,85,12.3,overcast clouds
658,Vanavara,RU,60.34,102.2797,23.9,98,100,1.5,overcast clouds
659,Cravo Norte,CO,6.3017,-70.2041,86.63,53,95,2.66,overcast clouds
660,Les Cayes,HT,18.2,-73.75,79.2,73,69,11.9,broken clouds
661,Itapetinga,BR,-15.2489,-40.2478,87.03,42,54,11.27,broken clouds
662,Eniwa,JP,42.8779,141.5442,35.01,93,0,8.05,clear sky
663,Watsa,CD,3.0372,29.5355,63.23,98,100,3.53,light rain
664,Mahon,ES,39.8885,4.2658,60.8,88,20,8.05,few clouds
665,Walkerburn,GB,55.6236,-3.017,37.99,48,99,3.0,overcast clouds
666,San Vicente,AR,-26.6167,-54.1333,87.42,36,7,6.93,light rain
667,Moree,AU,-29.4667,149.85,41.0,70,0,5.75,clear sky
668,Kefamenanu,ID,-9.4467,124.4781,68.99,91,89,2.3,overcast clouds
669,Acari,PE,-15.4311,-74.6158,80.91,55,87,10.67,overcast clouds
670,Quatre Cocos,MU,-20.2078,57.7625,78.8,89,40,5.75,light rain
671,Juatuba,BR,-19.9519,-44.3428,82.4,39,0,6.91,clear sky
672,Owando,CG,-0.4819,15.8999,73.18,92,98,4.83,overcast clouds
673,Bowen,AU,-20.0167,148.2333,75.2,94,11,3.44,few clouds
674,Anloga,GH,5.7947,0.8973,87.8,70,20,14.97,few clouds
675,Conakry,GN,9.538,-13.6773,89.6,48,77,11.5,haze
676,Ushtobe,KZ,45.2514,77.9838,51.21,30,0,15.88,clear sky
677,Belmonte,BR,-15.8631,-38.8828,82.4,83,75,4.61,broken clouds
678,Moron,AR,-34.6534,-58.6198,68.0,60,40,10.36,scattered clouds
679,Puerto Madryn,AR,-42.7692,-65.0385,71.33,37,18,13.94,few clouds
680,Saint-Paul,RE,-21.0096,55.2707,78.8,65,90,10.36,light rain
681,Tazovskiy,RU,67.4667,78.7,29.57,96,100,17.38,light snow
682,Siocon,PH,7.7061,122.1353,78.69,85,83,5.3,broken clouds
683,Sabha,LY,27.0377,14.4283,82.13,12,61,13.27,broken clouds
684,Katherine,AU,-14.4667,132.2667,73.4,83,84,4.61,broken clouds
685,Marawi,PH,7.9986,124.2928,75.99,89,55,5.99,broken clouds
686,Dakar,SN,14.6937,-17.4441,82.4,47,0,17.27,clear sky
687,Santa Isabel,BR,-23.3156,-46.2214,82.4,36,0,11.5,clear sky
688,Nizwa,OM,22.9333,57.5333,82.18,33,63,3.56,broken clouds
689,Grand-Santi,GF,4.25,-54.3833,81.14,88,92,3.15,overcast clouds
690,Chapleau,CA,47.8405,-83.4034,59.0,63,75,12.66,light rain
691,Tigzirt,DZ,36.8886,4.1198,61.93,87,94,5.44,overcast clouds
692,Tautira,PF,-17.7333,-149.15,82.4,65,75,5.75,broken clouds
693,Bintulu,MY,3.1667,113.0333,77.0,94,20,3.44,few clouds
694,Puerto El Triunfo,SV,13.2833,-88.55,89.6,58,20,9.22,few clouds
695,Orasac,BA,44.6289,16.0711,48.4,82,95,6.46,overcast clouds
696,Kongolo,CD,-5.3833,27.0,70.59,92,77,0.89,broken clouds
697,Loandjili,CG,-4.7561,11.8578,84.2,84,20,10.36,moderate rain
698,Cap Malheureux,MU,-19.9842,57.6142,78.01,80,85,4.0,light rain
699,Sayyan,YE,15.1718,44.3244,60.51,61,57,4.45,broken clouds
700,Wisconsin Rapids,US,44.3836,-89.8174,53.01,87,90,8.05,overcast clouds
701,Storforshei,NO,66.4043,14.5233,34.0,93,75,4.61,broken clouds
702,Kautokeino,NO,69.0125,23.0412,21.18,82,56,6.58,broken clouds
703,Kamina,CD,-8.7386,24.9906,64.49,95,100,2.35,light rain
704,Socorro,US,31.6546,-106.3033,82.0,9,75,18.41,broken clouds
705,Maraba,BR,-5.3686,-49.1178,89.6,62,20,4.61,few clouds
706,Howard Springs,AU,-12.497,131.047,82.4,89,99,5.75,overcast clouds
707,Tynda,RU,55.1667,124.7167,-7.69,97,72,2.64,broken clouds
708,Keuruu,FI,62.2667,24.7,41.0,38,0,3.44,clear sky
709,Det Udom,TH,14.906,105.0784,86.0,62,40,4.61,scattered clouds
710,Nakambala,ZM,-15.8324,27.7799,64.22,67,0,6.93,clear sky
711,Suraabad,AZ,40.8192,49.4687,53.6,76,20,4.61,few clouds
712,Jiangmen,CN,22.5833,113.0833,75.0,85,5,1.99,clear sky
713,Alugan,PH,12.2188,125.4808,77.9,81,39,7.11,scattered clouds
714,Yangambi,CD,0.8102,24.4336,70.61,89,99,2.82,overcast clouds
715,Barra Do Garcas,BR,-15.89,-52.2567,91.4,43,20,2.3,few clouds
